[  
   {  
      
      "lat":"28.5890419",
      "lon":"77.0554917",
      "name":"goonj/GD GOENKA"
   },
   {  
      
      "lat":"28.6518073",
      "lon":"77.2970454",
      "name":"goonj/99 AGCR Encl."
   },
   {  
      
      "lat":"28.5605401",
      "lon":"77.1509825",
      "name":"goonj/Vasant Vihar C-Block"
   },
   {  
      
      "lat":"28.5333435",
      "lon":"77.2855647",
      "name":"goonj/Head Office"
   },
   {  
      
      "lat":"28.6589178",
      "lon":"77.0860076",
      "name":"goonj/A-115 MEERA BAGH"
   },
   {  
      
      "lat":"28.5774771",
      "lon":"77.0417208",
      "name":"goonj/sanskriti apartment"
   }
]